City_ID,City,Lat,Lng,Max Temp,Humidity,Cloudiness,Wind Speed,Country,Date
0,shirvan,39.9509,48.8994,28.24,49,0,2.34,AZ,1690434032
1,bethel,41.3712,-73.414,24.72,77,0,4.12,US,1690433269
2,port-aux-francais,-49.35,70.2167,4.61,79,83,15.3,TF,1690433530
3,iqaluit,63.7506,-68.5145,6.85,87,75,1.03,CA,1690433529
4,waitangi,-43.9535,-176.5597,7.12,54,91,7.32,NZ,1690433252
5,ampanihy,-24.7,44.75,15.14,70,0,5.04,MG,1690434033
6,tiksi,71.6872,128.8694,7.9,70,38,2.36,RU,1690434034
7,timbuktu,16.7735,-3.0074,33.8,34,99,5.35,ML,1690434036
8,naama,33.2667,-0.3167,23.63,19,51,2.11,DZ,1690434036
9,edinburgh of the seven seas,-37.0676,-12.3116,10.84,53,92,9.4,SH,1690434027
10,hermanus,-34.4187,19.2345,10.34,95,0,2.95,ZA,1690434038
11,kota bharu,6.1333,102.2386,33.41,71,20,2.68,MY,1690434039
12,saipan,15.1355,145.701,28.39,100,40,5.14,MP,1690434040
13,puerto ayora,-0.7393,-90.3518,24.75,93,94,2.68,EC,1690434028
14,iskateley,67.6803,53.1512,20.81,57,89,2.31,RU,1690434042
15,crane,31.3974,-102.3501,29.86,31,60,5.6,US,1690434043
16,dadukou,26.5479,101.7054,27.8,82,99,1.62,CN,1690434044
17,fale old settlement,-9.3852,-171.2468,28.68,72,59,7.67,TK,1690434046
18,yellowknife,62.456,-114.3525,22.29,37,40,3.6,CA,1690434010
19,necochea,-38.5473,-58.7368,8.03,76,92,5.65,AR,1690433583
20,qaqortoq,60.7167,-46.0333,5.64,84,97,3.78,GL,1690434046
21,kemise,10.7167,39.8667,24.69,57,100,2.15,ET,1690434047
22,grytviken,-54.2811,-36.5092,2.44,99,100,3.78,GS,1690434047
23,pailin,12.849,102.6093,31.87,59,53,4.0,KH,1690434047
24,fisterra,42.9049,-9.2629,17.89,82,53,3.22,ES,1690433669
25,port isabel,26.0734,-97.2086,28.92,78,0,2.24,US,1690434047
26,katsuren-haebaru,26.3369,127.8719,28.01,92,40,8.23,JP,1690434047
27,bilibino,68.0546,166.4372,9.7,85,100,1.89,RU,1690434047
28,blytheville,35.9273,-89.919,27.75,83,85,3.58,US,1690434047
29,westport,41.1415,-73.3579,25.42,86,34,3.13,US,1690434048
30,ta`u,-14.2336,-169.5144,25.7,76,100,6.79,AS,1690434048
31,jamestown,42.097,-79.2353,22.62,95,40,3.6,US,1690434007
32,port alfred,-33.5906,26.891,13.44,94,48,5.88,ZA,1690434035
33,tremonton,41.7119,-112.1655,28.81,18,0,5.14,US,1690434048
34,wailua homesteads,22.0669,-159.378,27.24,83,42,0.89,US,1690434048
35,desvres,50.6688,1.8348,16.94,97,100,9.09,FR,1690434036
36,kyshtym,55.714,60.5528,23.43,55,8,3.68,RU,1690434048
37,dryden,49.7833,-92.7503,23.16,83,100,5.66,CA,1690433560
38,masterton,-40.9597,175.6575,9.38,91,70,2.46,NZ,1690434049
39,bredasdorp,-34.5322,20.0403,8.43,91,0,1.88,ZA,1690434023
40,betare oya,5.6,14.0833,19.0,97,100,1.31,CM,1690434049
41,lagunillas,10.1301,-71.2595,26.69,86,100,4.88,VE,1690434049
42,adamstown,-25.066,-130.1015,19.46,60,35,3.71,PN,1690434037
43,puerto natales,-51.7236,-72.4875,-1.99,98,100,2.0,CL,1690434044
44,harper,4.375,-7.7169,24.5,89,99,3.66,LR,1690433993
45,prado,-17.3411,-39.2208,20.72,77,55,1.31,BR,1690433393
46,bel ombre,-4.6167,55.4167,25.91,83,40,4.12,SC,1690434050
47,atafu village,-8.5421,-172.5159,28.69,75,96,8.15,TK,1690433486
48,carnarvon,-24.8667,113.6333,17.58,55,0,7.87,AU,1690434050
49,cabinda,-5.55,12.2,21.38,91,6,4.11,AO,1690434050
50,dolores,-36.3132,-57.6792,5.24,86,48,3.71,AR,1690433554
51,olonkinbyen,70.9221,-8.7187,4.59,89,100,4.84,SJ,1690434050
52,barcelos,41.5388,-8.6151,18.29,96,7,1.42,PT,1690433502
53,san patricio,28.017,-97.5169,29.36,78,71,6.02,US,1690434051
54,saint-pierre,-21.3393,55.4781,22.54,68,93,2.06,RE,1690433503
55,kailua-kona,19.6406,-155.9956,27.98,84,100,4.12,US,1690433500
56,la passe,45.5549,-0.8967,18.88,94,20,2.98,FR,1690433473
57,labytnangi,66.6572,66.4183,18.11,88,99,3.39,RU,1690434051
58,el granada,37.5027,-122.4694,17.75,87,75,6.17,US,1690433380
59,amos,48.5669,-78.1162,16.12,99,100,1.26,CA,1690434051
60,tura,25.5198,90.2201,28.54,76,66,4.63,IN,1690434051
61,anadyr,64.75,177.4833,13.28,76,75,5.0,RU,1690434034
62,susuman,62.7833,148.1667,9.89,80,100,0.86,RU,1690434052
63,mizan teferi,6.9833,35.5833,16.55,99,100,0.31,ET,1690434052
64,east london,-33.0153,27.9116,15.52,77,0,4.63,ZA,1690433487
65,longyearbyen,78.2186,15.6401,10.91,76,40,3.6,SJ,1690434051
66,uturoa,-16.7333,-151.4333,25.77,83,45,4.27,PF,1690433546
67,kodiak,57.79,-152.4072,13.73,82,40,4.12,US,1690434052
68,grand baie,-20.0182,57.5802,24.14,72,21,0.45,MU,1690434052
69,itabira,-19.6192,-43.2269,14.31,99,10,0.95,BR,1690434053
70,isafjordur,66.0755,-23.124,6.92,84,99,8.89,IS,1690434034
71,dhidhdhoo,6.8833,73.1,28.15,71,96,2.44,MV,1690433981
72,ushuaia,-54.8,-68.3,-0.19,69,75,2.57,AR,1690434050
73,smithers,54.7804,-127.1743,16.18,59,40,3.09,CA,1690434053
74,gushu,31.5598,118.4829,32.99,62,19,7.61,CN,1690434053
75,victorica,-36.2151,-65.4359,6.76,60,100,4.44,AR,1690434053
76,kuching,1.55,110.3333,36.1,60,20,3.13,MY,1690433860
77,thurmont,39.6237,-77.4108,25.83,85,66,1.34,US,1690434054
78,nhamunda,-2.1861,-56.7131,24.62,62,10,0.89,BR,1690434054
79,ribeira grande,38.5167,-28.7,22.65,97,65,2.68,PT,1690434054
80,gereshk,31.8209,64.5701,36.1,20,22,3.24,AF,1690434054
81,lucheng,31.2336,117.2806,33.73,60,8,4.67,CN,1690434054
82,quellon,-43.1167,-73.6167,8.14,100,100,2.57,CL,1690434055
83,fortuna,40.5982,-124.1573,14.43,94,0,3.6,US,1690433534
84,sitka,57.0531,-135.33,14.13,95,84,1.06,US,1690434055
85,bubaque,11.2833,-15.8333,27.52,81,100,5.18,GW,1690434055
86,kidal,18.4411,1.4078,31.66,39,55,4.29,ML,1690434055
87,pisco,-13.7,-76.2167,15.03,82,0,2.06,PE,1690434056
88,udachny,66.4167,112.4,19.89,43,100,3.96,RU,1690434047
89,shimoda,34.6667,138.95,32.84,69,40,4.26,JP,1690434056
90,mossel bay,-34.1831,22.146,9.96,81,16,2.89,ZA,1690433604
91,sao jose da coroa grande,-8.8978,-35.1478,22.13,90,86,1.5,BR,1690434056
92,price,39.5994,-110.8107,21.59,49,0,4.63,US,1690434056
93,avarua,-21.2078,-159.775,21.03,83,20,1.54,CK,1690434039
94,albany,42.6001,-73.9662,23.36,83,100,2.69,US,1690434042
95,nalut,30.3333,10.85,26.92,56,0,6.82,LY,1690434057
96,blackmans bay,-43.0167,147.3167,12.63,70,100,1.69,AU,1690434057
97,cadale,2.7603,46.3222,26.35,68,100,8.61,SO,1690434057
98,buka,40.8108,69.1986,38.38,10,1,3.3,UZ,1690434057
99,mazagao,-0.115,-51.2894,25.03,96,51,1.39,BR,1690434057
100,badger,64.8,-147.5333,28.95,57,0,0.0,US,1690434057
101,lorengau,-2.0226,147.2712,28.29,82,58,4.54,PG,1690433573
102,aasiaat,68.7098,-52.8699,3.5,94,25,4.55,GL,1690434053
103,college,64.8569,-147.8028,28.99,58,0,0.0,US,1690434058
104,monroeville,40.4212,-79.7881,27.99,78,70,3.81,US,1690434004
105,georgetown,5.4112,100.3354,31.96,79,20,3.6,MY,1690434033
106,whitehorse,60.7161,-135.0538,17.79,79,100,2.06,CA,1690434058
107,port blair,11.6667,92.75,30.02,79,40,6.69,IN,1690434058
108,okhotsk,59.3833,143.3,23.05,62,61,3.26,RU,1690434058
109,st anne,49.715,-2.2042,16.29,96,100,12.33,GG,1690434059
110,shingu,33.7333,135.9833,35.53,45,95,3.17,JP,1690434059
111,tazovsky,67.4667,78.7,16.56,74,11,1.25,RU,1690434059
112,kirakira,-10.4544,161.9205,27.33,83,100,6.21,SB,1690433477
113,constantia,44.1833,28.65,20.39,87,98,5.7,RO,1690434059
114,west island,-12.1568,96.8225,25.99,73,75,10.8,CC,1690434053
115,punta arenas,-53.15,-70.9167,-1.91,88,33,3.92,CL,1690434024
116,nova sintra,14.8667,-24.7167,22.68,86,85,8.55,CV,1690434060
117,hawaiian paradise park,19.5933,-154.9731,24.46,97,100,0.0,US,1690434024
118,guerrero negro,27.9769,-114.0611,20.08,86,2,4.52,MX,1690434060
119,yuzhno-sukhokumsk,44.6581,45.6436,27.42,49,0,8.43,RU,1690434060
120,kapuskasing,49.4169,-82.4331,16.05,100,75,0.0,CA,1690433935
121,haiku-pauwela,20.9219,-156.3051,24.59,82,15,4.47,US,1690434050
122,kievka,50.2619,71.5514,23.95,49,25,6.74,KZ,1690434060
123,dubbo,-32.25,148.6167,19.07,42,0,3.6,AU,1690433972
124,port macquarie,-31.4333,152.9167,19.38,35,0,2.54,AU,1690434034
125,kerikeri,-35.2268,173.9474,14.95,84,21,1.34,NZ,1690433543
126,hermoso campo,-27.6082,-61.3444,10.76,76,81,2.83,AR,1690434061
127,daru,-9.0763,143.2092,25.96,81,57,8.59,PG,1690433501
128,sechura,-5.5569,-80.8222,21.51,84,5,5.58,PE,1690434061
129,dampit,-8.2116,112.7493,30.56,34,46,2.69,ID,1690434061
130,illizi,26.4833,8.4667,28.89,11,0,2.78,DZ,1690434062
131,kruisfontein,-34.0033,24.7314,9.57,87,43,3.02,ZA,1690433490
132,thompson,55.7435,-97.8558,12.09,100,100,2.06,CA,1690434062
133,tucurui,-3.7661,-49.6725,23.66,64,17,1.17,BR,1690434062
134,papatowai,-46.5619,169.4708,5.64,89,100,4.85,NZ,1690434050
135,hithadhoo,-0.6,73.0833,28.44,78,53,6.85,MV,1690434063
136,rundu,-17.9333,19.7667,12.27,52,3,2.3,NA,1690434063
137,bereeda,11.8704,51.0579,32.25,46,57,6.27,SO,1690434063
138,puerto gaitan,4.3133,-72.0816,24.31,85,60,1.96,CO,1690434063
139,watsa,3.0372,29.5355,17.84,98,100,0.48,CD,1690434063
140,ilulissat,69.2167,-51.1,-0.51,92,34,3.49,GL,1690434052
141,lebu,-37.6167,-73.65,10.22,78,89,0.18,CL,1690434064
142,czersk,53.7959,17.9765,10.26,77,31,2.98,PL,1690433781
143,tikrit,34.6071,43.6782,38.05,11,0,3.38,IQ,1690434064
144,ruteng,-8.6136,120.4721,24.53,44,4,3.39,ID,1690434064
145,pangkalpinang,-2.1333,106.1333,33.38,50,70,3.07,ID,1690434064
146,iquique,-20.2208,-70.1431,18.02,84,98,2.86,CL,1690434029
147,alice springs,-23.7,133.8833,22.75,53,100,7.2,AU,1690434065
148,vodnyy,63.5046,53.4095,19.73,54,100,1.85,RU,1690434065
149,bayanhongor,46.7167,100.1167,21.62,25,50,1.89,MN,1690433773
150,lautoka,-17.6167,177.4667,20.92,83,100,4.12,FJ,1690434065
151,churapcha,62.0025,132.4325,22.77,40,59,3.13,RU,1690434065
152,mount gambier,-37.8333,140.7667,16.53,55,56,3.73,AU,1690434065
153,nova vicosa,-17.8919,-39.3719,18.18,93,2,0.12,BR,1690434066
154,margaret river,-33.95,115.0667,13.92,67,99,7.56,AU,1690434053
155,adrar,20.5022,-10.0711,32.35,14,17,8.92,MR,1690433518
156,enewetak,11.3474,162.3373,28.55,78,100,6.36,MH,1690433483
157,tolanaro,-25.0319,46.9987,18.04,77,75,3.09,MG,1690433571
158,tripoli,32.8752,13.1875,26.65,72,0,2.75,LY,1690434067
159,stanley,54.868,-1.6985,14.04,92,100,1.03,GB,1690434029
160,selfoss,63.9331,-20.9971,7.25,75,92,4.19,IS,1690434067
161,howrah,22.5892,88.3103,31.0,79,40,2.57,IN,1690434067
162,port lincoln,-34.7333,135.8667,17.34,69,89,6.49,AU,1690434053
163,ouadda,8.0777,22.4007,20.66,95,100,1.3,CF,1690434067
164,utrik,11.2278,169.8474,27.89,81,100,7.73,MH,1690434067
165,krasnyy kholm,58.0607,37.1203,16.14,88,34,3.77,RU,1690434068
166,portland,45.5234,-122.6762,23.99,55,75,5.14,US,1690433569
167,pont rouge,48.8833,-72.0825,22.16,97,100,2.61,CA,1690434068
168,iranshahr,27.2025,60.6848,34.19,52,0,2.06,IR,1690434068
169,sisimiut,66.9395,-53.6735,4.53,93,57,3.71,GL,1690434068
170,rabigh,22.7986,39.0349,34.2,38,48,3.61,SA,1690434068
171,georgiyevka,43.0369,74.7114,34.02,26,20,2.0,KZ,1690434069
172,grootfontein,-19.5667,18.1167,8.76,53,0,0.0,NA,1690434069
173,coquimbo,-29.9533,-71.3436,13.56,88,100,1.45,CL,1690433557
174,nacala,-14.5428,40.6728,19.48,78,33,4.38,MZ,1690434069
175,port mathurin,-19.6833,63.4167,23.56,80,32,7.62,MU,1690434069
176,fort bragg,35.139,-79.006,27.32,84,0,3.6,US,1690433475
177,petropavlovsk-kamchatsky,53.0452,158.6483,20.33,64,40,7.0,RU,1690434047
178,maxixe,-23.8597,35.3472,15.9,93,20,0.0,MZ,1690434070
179,quatre cocos,-20.2078,57.7625,23.94,75,35,5.2,MU,1690434070
180,gandajika,-6.75,23.95,19.07,37,22,2.06,CD,1690434070
181,nema,57.5067,50.5011,22.72,71,47,5.23,RU,1690434070
182,lyubinskiy,55.1542,72.6925,24.82,39,13,3.3,RU,1690434070
183,anna regina,7.2644,-58.5077,25.74,89,4,2.29,GY,1690434071
184,la ronge,55.1001,-105.2842,12.14,82,100,4.63,CA,1690434050
185,wynyard,-41.0,145.7167,12.14,77,91,3.85,AU,1690434071
186,poronaysk,49.2167,143.1167,25.27,65,54,1.24,RU,1690433489
187,kawm hamadah,30.761,30.6973,28.37,47,0,0.97,EG,1690434071
188,opuwo,-18.0607,13.84,13.74,44,3,1.34,NA,1690434071
189,jessheim,60.1415,11.1752,10.99,89,75,2.06,NO,1690433946
190,leua,48.2156,18.6071,14.16,78,6,2.94,SK,1690434072
191,songadh,21.1667,73.5667,27.73,82,100,3.72,IN,1690434072
192,ancud,-41.8697,-73.8203,8.07,95,100,3.02,CL,1690433549
193,gokarna,14.55,74.3167,26.22,85,100,6.56,IN,1690434072
194,puerto colombia,10.9878,-74.9547,27.05,88,97,4.08,CO,1690434072
195,ola,59.5833,151.2833,16.75,98,100,2.72,RU,1690434073
196,porto murtinho,-21.6989,-57.8825,18.43,90,97,2.5,BR,1690434073
197,luderitz,-26.6481,15.1594,12.28,64,0,3.0,NA,1690433621
198,namibe,-15.1961,12.1522,16.69,84,85,4.6,AO,1690434046
199,lata,40.1629,-8.3327,16.71,93,88,1.15,PT,1690434073
200,cacak,43.8914,20.3497,14.78,84,94,1.83,RS,1690434073
201,kalmunai,7.4167,81.8167,31.95,53,100,1.23,LK,1690434074
202,guatrache,-37.6678,-63.5302,4.66,58,100,2.68,AR,1690434074
203,inhambane,-23.865,35.3833,15.99,93,20,0.0,MZ,1690434074
204,cockburn town,21.4612,-71.1419,28.38,82,70,9.71,TC,1690434074
205,nar'yan-mar,67.6713,53.087,20.78,58,89,2.45,RU,1690434074
206,monticello,45.3055,-93.7941,27.23,87,40,1.54,US,1690434074
207,berezovyy,51.6667,135.7,30.91,40,27,1.01,RU,1690434075
208,kvissleby,62.2936,17.375,12.91,87,85,1.56,SE,1690434075
209,isla mujeres,21.2311,-86.731,28.23,82,3,6.17,MX,1690434075
210,talnakh,69.4865,88.3972,27.34,42,45,1.94,RU,1690434075
211,la tuque,47.4334,-72.7824,20.14,88,100,1.54,CA,1690434075
212,atuncolla,-15.6833,-70.15,1.94,41,0,1.8,PE,1690434076
213,trairi,-3.2778,-39.2689,25.19,86,8,5.08,BR,1690433969
214,ust-nera,64.5667,143.2,14.5,54,95,3.45,RU,1690434076
215,codrington,-38.2667,141.9667,16.55,59,37,6.56,AU,1690434036
216,chui,-33.6971,-53.4616,8.87,86,1,5.31,UY,1690434061
217,nyala,12.05,24.8833,24.38,73,100,6.56,SD,1690434024
218,naze,28.3667,129.4833,24.51,80,100,6.65,JP,1690434075
219,sale,34.0389,-6.8166,22.38,68,75,1.54,MA,1690434077
220,hilo,19.7297,-155.09,24.03,96,100,0.0,US,1690434077
221,cabedelo,-6.9811,-34.8339,23.37,94,80,2.64,BR,1690434040
222,grand falls-windsor,48.9332,-55.6649,18.61,90,14,2.73,CA,1690434058
223,letterkenny,54.95,-7.7333,15.15,96,100,3.52,IE,1690434077
224,cao bang,22.6667,106.25,35.85,49,94,1.12,VN,1690434078
225,nemuro,43.3236,145.575,20.45,87,97,3.51,JP,1690433559
226,kenai,60.5544,-151.2583,14.05,96,100,4.12,US,1690434078
227,vel'sk,61.0701,42.0983,18.44,90,91,3.31,RU,1690434078
228,egilsstadir,65.2653,-14.3948,5.95,93,100,5.66,IS,1690434078
229,grand gaube,-20.0064,57.6608,24.1,72,30,0.45,MU,1690434079
230,batesville,35.7698,-91.641,29.23,78,0,4.12,US,1690434061
231,saki,8.6667,3.3833,21.44,96,100,3.15,NG,1690434079
232,cabo san lucas,22.8909,-109.9124,30.34,78,51,1.79,MX,1690433791
233,metallostroy,59.8008,30.5478,17.78,92,75,4.0,RU,1690434079
234,midvagur,62.0511,-7.1939,8.46,81,100,4.12,FO,1690433532
235,valparaiso,-33.0393,-71.6273,14.44,65,0,2.06,CL,1690433588
236,zadar,44.1197,15.2422,18.34,59,0,3.09,HR,1690434080
237,otra banda,18.6502,-68.6628,24.36,86,100,2.32,DO,1690434080
238,south upi,6.8333,124.15,27.46,64,30,4.47,PH,1690434080
239,okha,53.5739,142.9478,16.32,86,100,2.73,RU,1690434080
240,lubango,-14.9172,13.4925,13.24,40,42,1.56,AO,1690434081
241,remire-montjoly,4.9167,-52.2667,25.02,94,100,0.0,GF,1690434081
242,minas de marcona,-15.2119,-75.1103,13.79,79,0,1.31,PE,1690434050
243,manggar,-2.8833,108.2667,29.15,69,34,7.18,ID,1690434081
244,happy valley-goose bay,53.3168,-60.3315,19.17,63,40,3.09,CA,1690434081
245,nuuk,64.1835,-51.7216,7.34,81,100,0.51,GL,1690434081
246,conde,-7.2597,-34.9075,22.7,100,75,3.09,BR,1690434082
247,klaksvik,62.2266,-6.589,8.51,90,81,4.06,FO,1690433588
248,qamdo,31.1667,97.2333,12.81,44,98,2.26,CN,1690433615
249,walvis bay,-22.9575,14.5053,11.72,93,100,4.63,NA,1690434063
250,igarka,67.4667,86.5833,25.81,54,2,3.95,RU,1690434082
251,retreat,38.8245,-85.8533,26.92,76,10,0.45,US,1690433584
252,lockwood,45.8191,-108.4149,26.22,47,24,4.67,US,1690434082
253,lompoc,34.6391,-120.4579,16.08,95,100,4.63,US,1690433996
254,mugumu,-1.85,34.7,17.33,51,40,1.54,TZ,1690433545
255,as sulayyil,20.4607,45.5779,32.14,10,63,4.12,SA,1690434083
256,rio grande,-32.035,-52.0986,10.53,90,1,6.34,BR,1690434083
257,mitu,1.1983,-70.1733,24.21,85,96,0.59,CO,1690434067
258,atherton,53.5237,-2.4935,16.83,98,100,1.67,GB,1690434083
259,haapajarvi,63.75,25.3333,14.69,89,51,1.08,FI,1690434084
260,invercargill,-46.4,168.35,6.65,79,98,3.6,NZ,1690434032
261,yorkton,51.2167,-102.4677,14.91,63,40,1.54,CA,1690434084
262,the pas,53.8251,-101.2541,12.01,94,100,4.12,CA,1690434084
263,kingston,17.997,-76.7936,27.53,87,75,9.26,JM,1690433975
264,tongouson,5.0214,120.1328,28.59,80,83,9.0,PH,1690434085
265,terrace,54.5163,-128.6035,18.95,59,75,3.6,CA,1690434085
266,amursk,50.2261,136.8994,28.25,52,31,1.5,RU,1690434085
267,cidade velha,14.9167,-23.6167,26.26,89,75,5.66,CV,1690434085
268,markala,13.7021,-6.0659,28.72,61,92,5.38,ML,1690434085
269,kavieng,-2.5744,150.7967,28.79,75,70,5.3,PG,1690433583
270,geraldton,-28.7667,114.6,16.23,77,100,5.66,AU,1690434056
271,suwayr,30.1171,40.3893,29.52,12,21,0.72,SA,1690434086
272,kimberley,-28.7323,24.7623,1.83,93,0,0.0,ZA,1690434086
273,yermentau,51.6214,73.1069,18.67,75,96,5.71,KZ,1690434086
274,canico,32.6333,-16.85,21.51,78,20,3.09,PT,1690434055
275,nishinoomote,30.7333,131.0,28.31,94,75,3.6,JP,1690434087
276,khovd,48.0056,91.6419,26.48,24,97,3.34,MN,1690434087
277,dogondoutchi,13.6393,4.0287,29.22,63,86,5.82,NE,1690434087
278,fleurance,43.8482,0.663,16.99,99,0,0.72,FR,1690434087
279,olinda,-8.0089,-34.8553,22.85,100,40,2.06,BR,1690434088
280,puerto baquerizo moreno,-0.9,-89.6,24.0,81,98,7.32,EC,1690434058
281,vorgashor,67.5833,63.95,15.74,83,98,2.32,RU,1690434068
282,caleta olivia,-46.4393,-67.5281,3.51,59,100,3.66,AR,1690434088
283,st. john's,47.5649,-52.7093,18.66,83,100,8.75,CA,1690434012
284,aykhal,66.0,111.5,15.52,64,100,3.95,RU,1690434089
285,lazaro cardenas,17.9583,-102.2,27.36,80,83,2.31,MX,1690434089
286,kapa'a,22.0752,-159.319,28.99,80,0,6.17,US,1690433509
287,amungan,15.3652,119.9582,27.5,88,100,8.86,PH,1690434089
288,sovetskaya gavan',48.9723,140.2878,22.42,72,61,1.39,RU,1690434089
289,brisas de zicatela,15.8369,-97.0419,26.75,82,100,2.83,MX,1690434089
290,slave lake,55.2834,-114.769,14.99,72,100,2.35,CA,1690433942
291,kone,-21.0595,164.8658,22.49,49,1,4.71,NC,1690433635
292,antofagasta,-23.65,-70.4,17.6,87,62,1.16,CL,1690434090
293,duong dong,10.2167,103.9667,31.0,79,40,7.72,VN,1690434090
294,ashburton,-37.8626,145.0794,18.5,53,0,4.02,AU,1690434090
295,zhezqazghan,47.7833,67.7667,24.32,46,20,5.0,KZ,1690434090
296,hasaki,35.7333,140.8333,40.16,71,15,5.84,JP,1690434091
297,namtsy,62.7161,129.6658,24.71,35,85,2.33,RU,1690433662
298,jabor,5.921,169.6434,28.36,73,92,2.16,MH,1690434091
299,humaita,-7.5061,-63.0208,23.38,58,45,0.69,BR,1690434091
300,iwanai,42.9744,140.5089,27.55,70,100,4.07,JP,1690434091
301,palangkaraya,-2.2,113.8333,33.13,42,78,1.95,ID,1690434091
302,bardai,11.65,7.2333,22.4,82,99,5.33,NG,1690434092
303,novo aripuana,-5.1206,-60.3797,24.01,58,10,1.17,BR,1690434092
304,la'ie,21.6477,-157.9253,28.98,75,15,4.02,US,1690433548
305,ilomantsi,62.6716,30.9328,14.83,78,100,1.4,FI,1690433596
306,khandyga,62.6667,135.6,23.36,26,0,5.19,RU,1690434067
307,male,4.1748,73.5089,30.97,74,75,4.12,MV,1690434013
308,vernon,50.2581,-119.2691,21.2,52,1,2.06,CA,1690434092
309,mejit,10.2753,170.8646,28.1,80,100,7.37,MH,1690434029
310,castanos,26.7833,-101.4167,27.95,33,1,6.27,MX,1690434093
311,simanggang,1.2472,111.4528,31.99,62,20,2.24,MY,1690434093
312,puntarenas,9.9763,-84.8384,26.63,81,100,0.82,CR,1690434093
313,san luis de la loma,17.2706,-100.8939,26.89,83,70,2.02,MX,1690433506
314,birao,10.2849,22.7882,22.43,91,100,0.81,CF,1690434093
315,nantucket,41.2835,-70.0995,23.89,97,10,6.99,US,1690433558
316,brookings,44.3114,-96.7984,28.0,77,0,5.14,US,1690433361
317,holualoa,19.6228,-155.9522,25.43,86,18,0.45,US,1690434094
318,tazacorte,28.629,-17.9293,21.54,86,75,4.12,ES,1690433564
319,tobruk,32.0836,23.9764,27.67,81,0,6.95,LY,1690434094
320,arraial do cabo,-22.9661,-42.0278,19.23,93,60,2.7,BR,1690434053
321,sars,56.5502,57.1366,22.29,64,40,3.26,RU,1690434094
322,kourou,5.1552,-52.6478,25.03,92,81,2.81,GF,1690433620
323,martapura,-3.4167,114.85,33.05,49,20,2.57,ID,1690434040
324,revda,56.801,59.9303,21.64,62,31,2.98,RU,1690434095
325,businga,3.3333,20.8833,22.0,88,96,1.13,CD,1690434095
326,aripuana,-9.1667,-60.6333,22.08,59,13,0.81,BR,1690434075
327,swakopmund,-22.6833,14.5333,11.66,89,0,1.34,NA,1690434095
328,kelibia,36.8476,11.0939,24.14,69,0,2.06,TN,1690434095
329,berdigestyakh,62.0989,126.6992,25.29,41,100,1.95,RU,1690433514
330,quang ngai,15.1167,108.8,35.53,46,53,2.59,VN,1690434096
331,umluj,25.0213,37.2685,34.25,39,24,0.68,SA,1690434096
332,xuchang,34.0167,113.8167,34.27,47,71,3.63,CN,1690434070
333,gbadolite,4.2833,21.0167,21.56,91,95,1.24,CD,1690434096
334,wicklow,53.0,-6.4167,13.36,89,100,3.45,IE,1690434096
335,izhmorskiy,56.194,86.6414,24.35,49,52,1.96,RU,1690434097
336,xichang,27.8964,102.2634,26.28,67,87,1.52,CN,1690434097
337,vrangel',42.7297,133.0839,23.58,79,59,3.28,RU,1690434097
338,melekeok village,7.4957,134.6367,26.31,94,100,7.2,PW,1690434097
339,meadow lake,34.8014,-106.5436,25.11,52,81,3.4,US,1690434078
340,sibut,5.718,19.0739,20.64,97,99,0.67,CF,1690434097
341,turkmenbasy,40.0222,52.9552,22.43,88,75,4.12,TM,1690433638
342,medina,24.4686,39.6142,32.24,12,0,0.51,SA,1690433508
343,nobres,-14.7203,-56.3275,23.23,41,35,1.44,BR,1690434098
344,pyapon,16.2833,95.6833,31.32,67,59,6.24,MM,1690434098
345,zaltan,32.947,11.8665,25.9,71,0,3.52,LY,1690434098
346,nola,40.922,14.5329,23.92,90,2,1.42,IT,1690434098
347,vadso,70.0744,29.7487,10.09,93,100,4.12,NO,1690434098
348,afaahiti,-17.75,-149.2833,23.93,81,28,1.26,PF,1690434051
349,mohr,54.3528,9.7167,14.5,94,40,3.09,DE,1690434099
350,ouani,-12.1322,44.4258,25.19,72,64,5.3,KM,1690433644
351,castillos,-34.1667,-53.8333,8.65,87,3,5.28,UY,1690434099
352,port elizabeth,-33.918,25.5701,14.16,82,0,6.69,ZA,1690434018
353,rikaze,29.25,88.8833,10.6,81,100,0.71,CN,1690433518
354,potosi,-19.5836,-65.7531,1.78,91,0,2.52,BO,1690434099
355,diplo,24.4667,69.584,31.73,65,87,7.29,PK,1690434099
356,vila franca do campo,37.7167,-25.4333,21.23,88,3,2.67,PT,1690434082
357,coahuayana de hidalgo,18.7,-103.6583,27.15,84,89,0.88,MX,1690434097
358,astara,38.5,48.6667,24.39,62,0,2.61,AZ,1690434100
359,pacific grove,36.6177,-121.9166,14.82,92,63,2.24,US,1690434101
360,anqing,30.5092,117.0506,35.25,51,6,3.49,CN,1690434073
361,floro,61.5996,5.0328,15.04,88,75,3.6,NO,1690434101
362,tateyama,34.9833,139.8667,28.3,75,28,5.14,JP,1690434101
363,nieuw amsterdam,5.8833,-55.0833,26.12,89,100,2.77,SR,1690434101
364,tindouf,27.6711,-8.1474,23.25,33,0,8.75,DZ,1690433622
365,inirida,3.8653,-67.9239,23.41,92,76,0.63,CO,1690434102
366,tsiombe,-25.3,45.4833,19.38,54,0,6.37,MG,1690434084
367,klyuchi,52.2667,79.1667,22.7,48,100,5.61,RU,1690434098
368,timbauba,-7.5053,-35.3183,21.62,90,50,2.68,BR,1690433893
369,quiberon,47.4841,-3.1196,18.37,84,96,2.68,FR,1690434102
370,khanbari,27.3747,87.2039,26.37,79,100,0.29,NP,1690434102
371,carmo do rio verde,-15.3536,-49.7075,19.69,42,13,2.07,BR,1690434102
372,hanceville,34.0607,-86.7675,25.09,69,33,0.05,US,1690434103
373,tobelo,1.7284,128.0095,29.79,69,40,2.85,ID,1690434070
374,yuzhno-kurilsk,44.0306,145.8556,22.28,80,98,1.28,RU,1690433523
375,molochnoye,59.2917,39.6787,17.79,85,45,4.63,RU,1690434103
376,pierre,44.3683,-100.351,28.49,64,0,2.24,US,1690434103
377,luwingu,-10.2621,29.9271,10.19,71,51,1.72,ZM,1690434103
378,chonchi,-42.6128,-73.8092,7.84,99,100,1.64,CL,1690434103
379,al ghayzah,16.2079,52.176,26.38,81,69,4.21,YE,1690433600
380,howard springs,-12.497,131.047,27.95,29,100,1.1,AU,1690433627
381,keflavik,64.0049,-22.5624,8.24,93,0,2.57,IS,1690434104
382,tralee,52.2704,-9.7026,15.53,99,100,2.63,IE,1690434104
383,salinas,36.6777,-121.6555,16.11,86,100,4.63,US,1690433547
384,queenstown,-31.8976,26.8753,8.78,86,23,1.75,ZA,1690434104
385,labuan,5.2767,115.2417,31.2,70,20,2.24,MY,1690434105
386,lagoa,39.05,-27.9833,22.2,92,62,8.08,PT,1690434105
387,chernyshevsk,52.5243,117.0174,26.08,47,84,4.85,RU,1690434105
388,starobesheve,47.7504,38.0305,26.04,46,0,5.97,UA,1690434105
389,dudinka,69.4058,86.1778,27.57,50,75,2.82,RU,1690434084
390,puno,-15.8333,-70.0333,2.12,47,0,1.66,PE,1690434105
391,shendi,16.6915,33.4341,29.54,54,98,9.59,SD,1690434105
392,robbah,33.2797,6.9098,27.8,60,0,8.92,DZ,1690434106
393,cartagena,10.3997,-75.5144,26.79,94,40,2.57,CO,1690434106
394,olonets,60.9847,32.9698,16.84,89,32,0.73,RU,1690434106
395,gharyan,32.1722,13.0203,21.8,68,0,1.33,LY,1690434106
396,weinan,34.5036,109.5089,32.34,46,100,2.46,CN,1690434106
397,sola,-13.8833,167.55,24.02,82,100,13.96,VU,1690433517
398,hadibu,12.65,54.0333,26.08,72,75,15.6,YE,1690434095
399,mbanza kongo,-6.267,14.2401,17.53,95,1,1.0,AO,1690434107
400,lib,8.3122,167.3766,28.59,75,50,4.2,MH,1690434107
401,tocopilla,-22.092,-70.1979,16.07,81,57,3.12,CL,1690434029
402,inarajan village,13.2736,144.7484,29.08,94,100,5.76,GU,1690434107
403,vilyuchinsk,52.9306,158.4028,21.15,87,98,2.45,RU,1690434060
404,nogliki,51.8333,143.1667,18.89,91,100,2.66,RU,1690434102
405,trinidad,-14.8333,-64.9,23.1,63,41,2.05,BO,1690434107
406,katsuura,35.1333,140.3,28.91,70,45,4.81,JP,1690434107
407,altpinar,39.2042,32.7478,27.63,17,0,2.42,TR,1690434108
408,maffra,-37.9667,146.9833,17.97,34,0,0.6,AU,1690434108
409,schweizer-reneke,-27.1887,25.3293,8.09,78,1,4.71,ZA,1690434108
410,kalevala,65.2,31.1667,16.12,81,65,1.04,RU,1690434108
411,puerto lempira,15.2667,-83.7667,26.14,82,78,2.1,HN,1690434108
412,las tablas,7.7667,-80.2833,25.38,89,100,2.21,PA,1690434108
413,bambanglipuro,-7.95,110.2833,26.72,62,93,5.96,ID,1690434108
414,webster,42.0501,-71.8801,22.42,90,95,2.97,US,1690434109
415,monze,-16.2833,27.4833,11.68,94,1,2.31,ZM,1690434109
416,casper,42.8666,-106.3131,22.62,43,60,2.68,US,1690434109
417,summerlin south,36.1027,-115.3811,37.19,17,3,0.89,US,1690434109
418,fort mcmurray,56.7268,-111.381,14.77,94,100,2.57,CA,1690434031
419,yermakovskoye,53.2831,92.4003,26.62,37,28,3.38,RU,1690433570
420,kozloduy,43.7833,23.7333,18.87,55,70,10.34,BG,1690434109
421,hamilton,39.1834,-84.5333,28.18,75,100,6.69,US,1690434052
422,ca mau,9.1769,105.15,29.26,73,100,5.24,VN,1690434067
423,edmundston,47.3737,-68.3251,20.63,88,100,0.51,CA,1690434109
424,paraiso,9.8383,-83.8656,20.48,84,98,1.13,CR,1690433844
425,nyurba,63.2842,118.3319,23.63,31,32,3.36,RU,1690434051
426,khash,28.2211,61.2158,30.33,36,62,0.54,IR,1690434110
427,waslala,13.2333,-85.3833,22.3,94,89,0.52,NI,1690434109
428,chandler,33.3062,-111.8412,42.82,30,20,15.43,US,1690433480
429,at taj,24.2049,23.2857,27.76,17,92,3.25,LY,1690434110
430,filingue,14.3521,3.3168,30.68,56,89,6.25,NE,1690434110
431,lodja,-3.4833,23.4333,21.13,48,67,0.37,CD,1690434111
432,xining,36.6167,101.7667,17.65,72,100,2.58,CN,1690434028
433,carutapera,-1.195,-46.02,24.54,89,31,2.51,BR,1690433526
434,bay roberts,47.5999,-53.2648,18.86,90,66,0.89,CA,1690434111
435,ciudad insurgentes,25.2625,-111.7753,25.01,60,4,3.1,MX,1690434111
436,dwarka,22.2394,68.9678,28.46,81,100,7.81,IN,1690433602
437,broken hill,-31.95,141.4333,20.36,31,31,7.88,AU,1690433589
438,torreperogil,38.0345,-3.2307,18.22,49,10,0.98,ES,1690434111
439,antalaha,-14.9003,50.2788,21.98,82,36,5.26,MG,1690434112
440,kirensk,57.7853,108.1119,27.49,52,94,1.52,RU,1690434112
441,leshan,29.5623,103.7639,28.14,78,90,2.88,CN,1690434112
442,grande prairie,55.1667,-118.8027,14.1,94,100,5.14,CA,1690434112
443,eureka,40.8021,-124.1637,14.58,89,4,1.68,US,1690434112
444,sunnyside,46.3237,-120.0087,23.8,56,0,2.57,US,1690434098
445,beloslav,43.1833,27.7,20.23,83,75,6.17,BG,1690434112
446,vorkuta,67.5,64.0,16.26,83,99,2.14,RU,1690433513
447,betio village,1.358,172.9211,31.02,74,48,2.65,KI,1690434113
448,swift current,50.2834,-107.8014,18.45,34,0,3.6,CA,1690434013
449,akrehamn,59.2667,5.1833,14.14,94,75,2.06,NO,1690434113
450,madalena,41.2162,-8.3345,17.53,95,7,1.01,PT,1690434105
451,launceston,-41.45,147.1667,12.8,75,40,8.75,AU,1690434113
452,sosnogorsk,63.6023,53.8817,18.07,62,96,1.49,RU,1690434113
453,asmara,15.3333,38.9333,15.76,76,73,5.6,ER,1690434114
454,san jose,37.3394,-121.895,19.36,75,20,5.66,US,1690433898
455,nazira,26.9167,94.7333,29.21,79,100,0.34,IN,1690434114
456,saurimo,-9.6608,20.3916,14.83,44,21,2.52,AO,1690434114
457,quelimane,-17.8786,36.8883,13.97,100,40,1.54,MZ,1690434063
458,trinity beach,-16.7888,145.6968,25.56,73,75,5.14,AU,1690434114
459,airuk,7.2772,168.8203,28.29,74,73,3.09,MH,1690434115
460,beledweyne,4.7358,45.2036,25.3,63,32,9.88,SO,1690434115
461,gaspe,48.8334,-64.4819,17.95,100,20,2.06,CA,1690434115
462,saint john,45.2727,-66.0677,16.57,100,100,2.57,CA,1690433980
463,lebowakgomo,-24.2,29.5,5.25,75,0,1.71,ZA,1690434115
464,port saint john's,-31.6229,29.5448,17.77,70,76,2.03,ZA,1690434115
465,boa vista,2.8197,-60.6733,23.99,94,20,1.54,BR,1690434108
466,flying fish cove,-10.4217,105.6791,26.82,78,100,6.69,CX,1690434115
467,tasqala,51.1167,50.3167,27.78,42,71,4.78,KZ,1690434115
468,cururupu,-1.8283,-44.8683,23.78,89,20,1.69,BR,1690434116
469,uray,60.1247,64.7758,22.11,58,20,2.57,RU,1690434116
470,sungai penuh,-2.0833,101.3833,27.29,52,45,2.27,ID,1690434116
471,ghormach,35.7306,63.7826,33.13,24,1,4.85,AF,1690434116
472,nizhniy lomov,53.5304,43.6766,23.57,74,32,4.81,RU,1690434116
473,undurkhaan,47.3194,110.6556,26.26,32,0,4.39,MN,1690434116
474,beroroha,-21.6667,45.1667,16.5,57,1,2.51,MG,1690434117
475,pechora,65.1472,57.2244,19.36,67,96,2.07,RU,1690434117
476,salina cruz,16.1667,-95.2,27.23,73,45,5.27,MX,1690434117
477,sidi ifni,29.3797,-10.173,19.15,88,64,5.42,MA,1690434117
478,rio verde de mato grosso,-18.9181,-54.8442,22.81,35,0,1.05,BR,1690434117
479,kolpashevo,58.3131,82.9089,23.56,57,72,1.91,RU,1690434117
480,mar del plata,-38.0023,-57.5575,8.94,83,75,8.05,AR,1690434017
481,genhe,50.7833,121.5167,18.82,87,100,0.94,CN,1690434117
482,taroa,8.7058,171.2275,28.3,77,100,5.01,MH,1690434118
483,cubatao,-23.895,-46.4253,24.6,26,4,2.63,BR,1690434118
484,tomatlan,19.9333,-105.25,25.88,83,97,1.47,MX,1690433595
485,coronel dorrego,-38.7187,-61.2873,2.62,90,89,3.67,AR,1690434118
486,jacarau,-6.6122,-35.2928,21.07,92,49,3.78,BR,1690434118
487,touba,8.2833,-7.6833,21.2,97,89,3.03,CI,1690434118
488,workington,54.6425,-3.5441,16.57,91,100,1.78,GB,1690434118
489,lerwick,60.1545,-1.1494,9.0,86,0,0.93,GB,1690434119
490,bengkulu,-3.8004,102.2655,29.21,66,46,4.94,ID,1690433919
491,bikin,46.8161,134.26,28.81,66,85,1.6,RU,1690434119
492,menaka,15.9182,2.4022,33.55,41,99,5.83,ML,1690434119
493,lakatoro,-16.0999,167.4164,23.24,72,94,9.0,VU,1690434119
494,dongola,19.1667,30.4833,34.12,37,73,6.67,SD,1690434120
495,tommot,58.9564,126.2925,27.78,50,4,3.49,RU,1690434120
496,moura,38.1401,-7.4486,16.06,66,0,1.72,PT,1690434120
497,tual,-5.6667,132.75,26.06,82,65,8.36,ID,1690434120
498,kushk,33.2957,61.9522,34.4,12,1,8.81,AF,1690434120
499,iola,37.9245,-95.4,28.58,61,0,4.12,US,1690434120
500,san-pedro,4.7485,-6.6363,23.6,94,92,2.16,CI,1690434121
501,majene,-3.5403,118.9707,28.69,66,7,4.72,ID,1690434121
502,el calafate,-50.3408,-72.2768,-4.15,70,100,0.84,AR,1690434100
503,arkhangel'sk,64.5401,40.5433,16.86,75,100,1.13,RU,1690433627
504,kattivakkam,13.2167,80.3167,32.05,69,98,8.71,IN,1690434078
505,kaiapoi,-43.3783,172.6401,10.6,55,55,9.77,NZ,1690434050
506,djougou,9.7085,1.666,21.78,96,100,1.86,BJ,1690434121
507,qarazhal,48.0078,70.7903,27.32,36,98,5.68,KZ,1690434122
508,tadine,-21.55,167.8833,20.8,58,60,7.37,NC,1690434068
509,abqaiq,25.9371,49.6776,38.78,18,48,2.26,SA,1690434122
510,taro,-8.3862,115.28,24.0,53,33,2.64,ID,1690434122
511,krizevci,46.0219,16.5425,13.44,91,10,0.93,HR,1690434122
512,kuqa,41.7278,82.9364,34.5,18,0,1.53,CN,1690434029
513,lihue,21.9789,-159.3672,27.77,74,0,6.17,US,1690433944
514,vikulovo,56.8167,70.6107,23.95,49,65,3.64,RU,1690434123
515,isangel,-19.55,169.2667,22.01,58,47,7.71,VU,1690434124
516,yarovoye,52.9273,78.58,22.03,53,100,3.18,RU,1690434028
517,camana,-16.6228,-72.7111,16.39,90,10,2.28,PE,1690434124
518,toliara,-23.35,43.6667,17.99,54,0,6.27,MG,1690433567
519,severo-yeniseyskiy,60.3725,93.0408,18.1,86,100,1.79,RU,1690434112
520,gadzhiyevo,69.2551,33.3362,10.48,93,100,1.38,RU,1690434065
521,huilong,31.8111,121.655,31.07,76,71,6.25,CN,1690434126
522,kibre mengist,5.8833,38.9833,16.88,80,97,1.53,ET,1690434127
523,salym,60.0625,71.4789,22.61,60,33,2.97,RU,1690434128
524,twentynine palms,34.1356,-116.0542,37.08,22,0,3.04,US,1690433945
525,raduzhny,62.0961,77.475,20.52,70,56,3.13,RU,1690434130
526,fuglafjordur,62.244,-6.814,8.26,90,85,3.94,FO,1690434131
527,cuyo,10.8525,121.0086,28.6,77,100,11.0,PH,1690434131
528,puerto armuelles,8.2833,-82.8667,27.83,70,100,1.34,PA,1690434046
529,mammoth lakes,37.6485,-118.9721,17.4,39,0,5.14,US,1690434131
530,altay,47.8667,88.1167,32.83,17,9,4.51,CN,1690434133
531,mpulungu,-8.7623,31.1141,18.83,57,22,2.98,ZM,1690434134
532,robertsport,6.7533,-11.3686,24.79,87,76,1.71,LR,1690434134
533,jiangyou,31.7667,104.7167,23.27,94,100,2.52,CN,1690434134
534,port alberni,49.2413,-124.8028,18.91,76,94,0.56,CA,1690434134
535,kismayo,-0.3582,42.5454,25.4,75,98,7.31,SO,1690434134
536,port augusta,-32.5,137.7667,18.09,46,89,3.93,AU,1690433563
537,khandud,36.9513,72.318,20.34,26,2,2.5,AF,1690434135
538,luanda,-8.8368,13.2343,20.0,94,75,1.54,AO,1690433654
539,nago,26.5881,127.9761,27.47,94,100,7.04,JP,1690434135
540,sur,22.5667,59.5289,30.36,65,84,3.36,OM,1690434073
541,zaozersk,69.4005,32.4476,11.26,91,100,0.83,RU,1690433564
542,neiafu,-18.65,-173.9833,24.38,69,100,2.06,TO,1690434136
543,upata,8.0086,-62.3989,21.31,98,99,1.34,VE,1690434136
544,colonia,50.9333,6.95,15.72,87,100,3.6,DE,1690434058
545,langepas,61.2544,75.2124,19.85,77,100,4.12,RU,1690434136
546,bull savanna,17.8868,-77.5902,25.57,83,95,1.42,JM,1690434136
547,sabzevar,36.2126,57.6819,30.6,33,19,8.23,IR,1690434137
548,shizunai-furukawacho,42.3339,142.3669,25.0,84,92,2.49,JP,1690434137
549,burutu,5.3509,5.5076,24.72,90,100,2.01,NG,1690434137
550,flin flon,54.7682,-101.865,10.67,95,100,4.96,CA,1690434137
551,ar ruseris,11.8659,34.3869,23.33,83,98,2.86,SD,1690434137
552,wasagu,11.3764,5.7954,23.1,85,90,2.24,NG,1690434137
553,beyneu,45.3167,55.2,31.41,26,0,5.86,KZ,1690434138
554,chiang rai,19.9167,99.9167,34.73,65,20,3.09,TH,1690434138
555,olyokminsk,60.3736,120.4264,30.39,38,23,4.43,RU,1690434138
556,goundi,9.3627,17.366,22.27,88,99,1.6,TD,1690434139
557,piton saint-leu,-21.2196,55.3151,21.33,68,79,2.06,RE,1690434139
558,lapai,9.05,6.5667,23.8,91,67,1.58,NG,1690434139
559,manicore,-5.8092,-61.3003,23.79,59,7,1.15,BR,1690433665
560,arsen'yev,44.1631,133.2733,33.43,43,7,1.77,RU,1690434139
561,isiro,2.7739,27.616,18.9,98,100,0.96,CD,1690434139
562,ust-tsilma,65.441,52.1498,17.81,74,95,1.37,RU,1690434139
563,tshabong,-26.05,22.45,8.72,43,0,2.12,BW,1690434108
564,palikir - national government center,6.9248,158.1611,31.41,62,75,2.06,FM,1690433582
565,zhigalovo,54.8097,105.1578,24.24,51,100,3.02,RU,1690434140
566,kuzhener,56.8111,48.9128,22.01,82,33,5.56,RU,1690434140
567,tarboro,35.8968,-77.5358,26.95,89,0,2.06,US,1690434140
568,hereford,52.0568,-2.7148,17.81,95,100,1.34,GB,1690434140
569,badiyah,22.45,58.8,28.89,63,76,1.03,OM,1690434140
570,kristinestad,62.2743,21.376,15.05,75,67,2.93,FI,1690434141
571,ridder,50.355,83.5133,27.13,30,98,2.29,KZ,1690434056
572,viedma,-40.8135,-62.9967,3.4,78,95,2.47,AR,1690434052
573,freetown,8.484,-13.2299,25.12,87,89,2.0,SL,1690434017
574,ixtapa,20.7,-105.2,25.37,84,100,1.8,MX,1690434141
